{
  "ladestationen": [
    {
      "id": 1,
      "name": "Kipdorf 52",
      "adresse": "Kipdorf 52",
      "stadt": "Wuppertal",
      "postleitzahl": "42103",
      "anzahl_stecker": 2,
      "steckertypen": ["Typ2", "CCS"],
      "betreiber": "WSW",
      "ladepunkte": 2,
      "koordinaten": {
        "latitude": 51.25859218385583,
        "longitude": 7.151623268403359
      }
    },
    {
      "id": 2,
      "name": "Kasinostraße 52",
      "adresse": "Kasinostraße 52",
      "stadt": "Wuppertal",
      "postleitzahl": "42103",
      "anzahl_stecker": 4,
      "steckertypen": ["Typ2", "CCS"],
      "betreiber": "WSW",
      "ladepunkte": 4,
      "koordinaten": {
        "latitude": 51.25577596595743,
        "longitude": 7.14169561257761
      }
    },
    {
      "id": 3,
      "name": "Bleicherstraße 108",
      "adresse": "Bleicherstraße 108",
      "stadt": "Wuppertal",
      "postleitzahl": "42103",
      "anzahl_stecker": 2,
      "steckertypen": ["Typ2", "CCS"],
      "betreiber": "WSW",
      "ladepunkte": 2,
      "koordinaten": {
        "latitude": 51.27140993025715,
        "longitude": 7.1960310811064945
      }
    },
    {
      "id": 4,
      "name": "Alexanderstr. 18",
      "adresse": "Alexanderstr. 18",
      "stadt": "Wuppertal",
      "postleitzahl": "42103",
      "anzahl_stecker": 2,
      "steckertypen": ["Typ2", "CCS"],
      "betreiber": "WSW",
      "ladepunkte": 2,
      "koordinaten": {
        "latitude": 51.255288221656606,
        "longitude": 7.143830112437718
      }
    },
    {
      "id": 5,
      "name": "Friedrich-Ebert-Str. 89",
      "adresse": "Friedrich-Ebert-Str. 89",
      "stadt": "Wuppertal",
      "postleitzahl": "42103",
      "anzahl_stecker": 2,
      "steckertypen": ["Typ2", "CCS"],
      "betreiber": "WSW",
      "ladepunkte": 2,
      "koordinaten": {
        "latitude": 51.25369459959074,
        "longitude": 7.133866683876012
      }
    },
    {
      "id": 6,
      "name": "Parkhaus Hauptbahnhof",
      "adresse": "Döppersberg 1",
      "stadt": "Wuppertal",
      "postleitzahl": "42103",
      "anzahl_stecker": 6,
      "steckertypen": ["Typ2", "CCS"],
      "betreiber": "WSW",
      "ladepunkte": 6,
      "koordinaten": {
        "latitude": 51.25565126644916,
        "longitude": 7.150881454907811
      }
    },
    {
      "id": 7,
      "name": "Mirker Str. 49",
      "adresse": "Mirker Str. 49",
      "stadt": "Wuppertal",
      "postleitzahl": "42105",
      "anzahl_stecker": 2,
      "steckertypen": ["Typ2", "CCS"],
      "betreiber": "WSW",
      "ladepunkte": 2,
      "koordinaten": {
        "latitude": 51.26628745564127,
        "longitude": 7.144683539432127
      }
    },
    {
      "id": 8,
      "name": "Otto-Schell-Weg 18",
      "adresse": "Otto-Schell-Weg 18",
      "stadt": "Wuppertal",
      "postleitzahl": "42107",
      "anzahl_stecker": 2,
      "steckertypen": ["Typ2", "CCS"],
      "betreiber": "WSW",
      "ladepunkte": 2,
      "koordinaten": {
        "latitude": 51.261275066974385,
        "longitude": 7.163091139568559
      }
    },
    {
      "id": 9,
      "name": "Röttgen 143",
      "adresse": "Röttgen 143",
      "stadt": "Wuppertal",
      "postleitzahl": "42109",
      "anzahl_stecker": 4,
      "steckertypen": ["Typ2", "CCS"],
      "betreiber": "WSW",
      "ladepunkte": 4,
      "koordinaten": {
        "latitude": 51.28418571861325,
        "longitude": 7.156577066560362
      }
    },
    {
      "id": 10,
      "name": "Hermann-Ehlers-Str. 11",
      "adresse": "Hermann-Ehlers-Str. 11",
      "stadt": "Wuppertal",
      "postleitzahl": "42109",
      "anzahl_stecker": 2,
      "steckertypen": ["Typ2", "CCS"],
      "betreiber": "WSW",
      "ladepunkte": 2,
      "koordinaten": {
        "latitude": 51.2826660291594,
        "longitude": 7.1518692395695975
      }
    },
    {
      "id": 11,
      "name": "Aprather Weg 18 a",
      "adresse": "Aprather Weg 18 a",
      "stadt": "Wuppertal",
      "postleitzahl": "42113",
      "anzahl_stecker": 4,
      "steckertypen": ["Typ2", "CCS"],
      "betreiber": "WSW",
      "ladepunkte": 4,
      "koordinaten": {
        "latitude": 51.271737778450216,
        "longitude": 7.107890726073696
      }
    },
    {
      "id": 12,
      "name": "Boettingerweg 1",
      "adresse": "Boettingerweg 1",
      "stadt": "Wuppertal",
      "postleitzahl": "42117",
      "anzahl_stecker": 2,
      "steckertypen": ["Typ2", "CCS"],
      "betreiber": "WSW",
      "ladepunkte": 2,
      "koordinaten": {
        "latitude": 51.24039773064322,
        "longitude": 7.105677289645254
      }
    },
    {
      "id": 13,
      "name": "Friedrich-Ebert-Straße 308",
      "adresse": "Friedrich-Ebert-Straße 308",
      "stadt": "Wuppertal",
      "postleitzahl": "42117",
      "anzahl_stecker": 2,
      "steckertypen": ["Typ2", "CCS"],
      "betreiber": "WSW",
      "ladepunkte": 2,
      "koordinaten": {
        "latitude": 51.24954089565212,
        "longitude": 7.112421427461117
      }
    },
    {
      "id": 14,
      "name": "Friedrich-Ebert-Straße 360",
      "adresse": "Friedrich-Ebert-Straße 360",
      "stadt": "Wuppertal",
      "postleitzahl": "42117",
      "anzahl_stecker": 2,
      "steckertypen": ["Typ2", "CCS"],
      "betreiber": "WSW",
      "ladepunkte": 2,
      "koordinaten": {
        "latitude": 51.2487019236517,
        "longitude": 7.108905719748854
      }
    },
    {
      "id": 15,
      "name": "Friedrich-Ebert-Str. 475",
      "adresse": "Friedrich-Ebert-Str. 475",
      "stadt": "Wuppertal",
      "postleitzahl": "42117",
      "anzahl_stecker": 2,
      "steckertypen": ["Typ2", "CCS"],
      "betreiber": "WSW",
      "ladepunkte": 2,
      "koordinaten": {
        "latitude": 51.24394117996012,
        "longitude": 7.103927617555733
      }
    },
    {
      "id": 16,
      "name": "Parkhaus Stadthalle",
      "adresse": "Südstr. 26",
      "stadt": "Wuppertal",
      "postleitzahl": "42103",
      "anzahl_stecker": 2,
      "steckertypen": ["Typ2", "CCS"],
      "betreiber": "WSW",
      "ladepunkte": 2,
      "koordinaten": {
        "latitude": 51.25250194093388,
        "longitude": 7.140962679446684
      }
    },
    {
      "id": 17,
      "name": "Im Ostersiepen 53",
      "adresse": "Im Ostersiepen 53",
      "stadt": "Wuppertal",
      "postleitzahl": "42119",
      "anzahl_stecker": 2,
      "steckertypen": ["Typ2"],
      "betreiber": "WSW",
      "ladepunkte": 2,
      "koordinaten": {
        "latitude": 51.24411326597106,
        "longitude": 7.146795539567727
      }
    },
    {
      "id": 18,
      "name": "Von-der-Tann-Straße 44",
      "adresse": "Von-der-Tann-Straße 44",
      "stadt": "Wuppertal",
      "postleitzahl": "42215",
      "anzahl_stecker": 2,
      "steckertypen": ["Typ2"],
      "betreiber": "WSW",
      "ladepunkte": 2,
      "koordinaten": {
        "latitude": 51.257237758582754,
        "longitude": 7.128337983603472
      }
    },
    {
      "id": 19,
      "name": "Zur Werther Brücke 2",
      "adresse": "Zur Werther Brücke 2",
      "stadt": "Wuppertal",
      "postleitzahl": "42275",
      "anzahl_stecker": 2,
      "steckertypen": ["Typ2", "CCS"],
      "betreiber": "WSW",
      "ladepunkte": 2,
      "koordinaten": {
        "latitude": 51.27248783920523,
        "longitude": 7.206940697238847
      }
    },
    {
      "id": 20,
      "name": "Kleine Flurstraße 6",
      "adresse": "Kleine Flurstraße 6",
      "stadt": "Wuppertal",
      "postleitzahl": "42275",
      "anzahl_stecker": 2,
      "steckertypen": ["Typ2"],
      "betreiber": "WSW",
      "ladepunkte": 2,
      "koordinaten": {
        "latitude": 51.27255863897769,
        "longitude": 7.202358810734197
      }
    },
    {
      "id": 21,
      "name": "Große Flurstr. 41",
      "adresse": "Große Flurstr. 41",
      "stadt": "Wuppertal",
      "postleitzahl": "42275",
      "anzahl_stecker": 2,
      "steckertypen": ["Typ2", "CCS"],
      "betreiber": "WSW",
      "ladepunkte": 2,
      "koordinaten": {
        "latitude": 51.27287802135292,
        "longitude": 7.198932439569153
      }
    },
    {
      "id": 22,
      "name": "Friedrich-Naumann-Str. 18",
      "adresse": "Friedrich-Naumann-Str. 18",
      "stadt": "Wuppertal",
      "postleitzahl": "42275",
      "anzahl_stecker": 2,
      "steckertypen": ["Typ2"],
      "betreiber": "WSW",
      "ladepunkte": 2,
      "koordinaten": {
        "latitude": 51.25577596595743,
        "longitude": 7.14169561257761
      }
    },
    {
      "id": 23,
      "name": "Sonnenstraße 150",
      "adresse": "Sonnenstraße 150",
      "stadt": "Wuppertal",
      "postleitzahl": "42277",
      "anzahl_stecker": 2,
      "steckertypen": ["Typ2"],
      "betreiber": "WSW",
      "ladepunkte": 2,
      "koordinaten": {
        "latitude": 51.2836105759401,
        "longitude": 7.2319140623286735
      }
    },
    {
      "id": 24,
      "name": "Schmiedestraße 59",
      "adresse": "Schmiedestraße 59",
      "stadt": "Wuppertal",
      "postleitzahl": "42279",
      "anzahl_stecker": 2,
      "steckertypen": ["Typ2"],
      "betreiber": "WSW",
      "ladepunkte": 2,
      "koordinaten": {
        "latitude": 51.31161106021978,
        "longitude": 7.249525497574397
      }
    },
    {
      "id": 25,
      "name": "Schützenstraße 34",
      "adresse": "Schützenstraße 34",
      "stadt": "Wuppertal",
      "postleitzahl": "42281",
      "anzahl_stecker": 2,
      "steckertypen": ["Typ2", "CCS"],
      "betreiber": "WSW",
      "ladepunkte": 2,
      "koordinaten": {
        "latitude": 51.27927008388093,
        "longitude": 7.187204997758401
      }
    },
    {
      "id": 26,
      "name": "Bromberger Straße 28",
      "adresse": "Bromberger Straße 28",
      "stadt": "Wuppertal",
      "postleitzahl": "42281",
      "anzahl_stecker": 1,
      "steckertypen": ["Typ2"],
      "betreiber": "WSW",
      "ladepunkte": 1,
      "koordinaten": {
        "latitude": 51.27721064698103,
        "longitude": 7.186763197758272
      }
    },
    {
      "id": 27,
      "name": "Brombergerstrasse 39-41",
      "adresse": "Brombergerstrasse 39-41",
      "stadt": "Wuppertal",
      "postleitzahl": "42281",
      "anzahl_stecker": 2,
      "steckertypen": ["Typ2", "CCS"],
      "betreiber": "WSW",
      "ladepunkte": 2,
      "koordinaten": {
        "latitude": 51.27764914544354,
        "longitude": 7.187959868922007
      }
    },
    {
      "id": 28,
      "name": "Eschenstraße 139",
      "adresse": "Eschenstraße 139",
      "stadt": "Wuppertal",
      "postleitzahl": "42283",
      "anzahl_stecker": 2,
      "steckertypen": ["Typ2", "CCS"],
      "betreiber": "WSW",
      "ladepunkte": 2,
      "koordinaten": {
        "latitude": 51.27373917534565,
        "longitude": 7.186703000000002
      }
    },
    {
      "id": 29,
      "name": "Friedrich-Engels-Allee 369",
      "adresse": "Friedrich-Engels-Allee 369",
      "stadt": "Wuppertal",
      "postleitzahl": "42283",
      "anzahl_stecker": 2,
      "steckertypen": ["Typ2", "CCS"],
      "betreiber": "WSW",
      "ladepunkte": 2,
      "koordinaten": {
        "latitude": 51.266814083428585,
        "longitude": 7.18844809775771
      }
    },
    {
      "id": 30,
      "name": "Heusnerstraße 40",
      "adresse": "Heusnerstraße 40",
      "stadt": "Wuppertal",
      "postleitzahl": "42283",
      "anzahl_stecker": 2,
      "steckertypen": ["Typ2"],
      "betreiber": "WSW",
      "ladepunkte": 2,
      "koordinaten": {
        "latitude": 51.27365279963018,
        "longitude": 7.174482740085477
      }
    },
    {
      "id": 31,
      "name": "Wittensteinstr. 320",
      "adresse": "Wittensteinstr. 320",
      "stadt": "Wuppertal",
      "postleitzahl": "42285",
      "anzahl_stecker": 2,
      "steckertypen": ["Typ2"],
      "betreiber": "WSW",
      "ladepunkte": 2,
      "koordinaten": {
        "latitude": 51.2671503414228,
        "longitude": 7.1927048977577535
      }
    },
    {
      "id": 32,
      "name": "An der Bergbahn 26",
      "adresse": "An der Bergbahn 26",
      "stadt": "Wuppertal",
      "postleitzahl": "42289",
      "anzahl_stecker": 2,
      "steckertypen": ["Typ2"],
      "betreiber": "WSW",
      "ladepunkte": 2,
      "koordinaten": {
        "latitude": 51.266302625442385,
        "longitude": 7.202616997757708
      }
    },
    {
      "id": 33,
      "name": "Goethestraße 37",
      "adresse": "Goethestraße 37",
      "stadt": "Wuppertal",
      "postleitzahl": "42327",
      "anzahl_stecker": 2,
      "steckertypen": ["Typ2"],
      "betreiber": "WSW",
      "ladepunkte": 2,
      "koordinaten": {
        "latitude": 51.23617610827894,
        "longitude": 7.08463806891991
      }
    },
    {
      "id": 34,
      "name": "Lienhardstraße 12",
      "adresse": "Lienhardstraße 12",
      "stadt": "Wuppertal",
      "postleitzahl": "42329",
      "anzahl_stecker": 2,
      "steckertypen": ["Typ2"],
      "betreiber": "WSW",
      "ladepunkte": 2,
      "koordinaten": {
        "latitude": 51.23290350526124,
        "longitude": 7.0708322400835035
      }
    },
    {
      "id": 35,
      "name": "Vohwinkeler Str. 48",
      "adresse": "Vohwinkeler Str. 48",
      "stadt": "Wuppertal",
      "postleitzahl": "42329",
      "anzahl_stecker": 2,
      "steckertypen": ["Typ2"],
      "betreiber": "WSW",
      "ladepunkte": 2,
      "koordinaten": {
        "latitude": 51.23022405213555,
        "longitude": 7.065533040083345
      }
    },
    {
      "id": 36,
      "name": "Rathausplatz 8",
      "adresse": "Rathausplatz 8",
      "stadt": "Wuppertal",
      "postleitzahl": "42349",
      "anzahl_stecker": 2,
      "steckertypen": ["Typ2"],
      "betreiber": "WSW",
      "ladepunkte": 2,
      "koordinaten": {
        "latitude": 51.20504229987415,
        "longitude": 7.129715455427148
      }
    },
    {
      "id": 37,
      "name": "Hauptstr. 37",
      "adresse": "Hauptstr. 37",
      "stadt": "Wuppertal",
      "postleitzahl": "42349",
      "anzahl_stecker": 2,
      "steckertypen": ["Typ2"],
      "betreiber": "WSW",
      "ladepunkte": 2,
      "koordinaten": {
        "latitude": 51.20654629460659,
        "longitude": 7.132042997754729
      }
    },
    {
      "id": 38,
      "name": "Borner Str. 1",
      "adresse": "Borner Str. 1",
      "stadt": "Wuppertal",
      "postleitzahl": "42349",
      "anzahl_stecker": 2,
      "steckertypen": ["Typ2"],
      "betreiber": "WSW",
      "ladepunkte": 2,
      "koordinaten": {
        "latitude": 51.20593629674311,
        "longitude": 7.128923697754684
      }
    },
    {
      "id": 39,
      "name": "Ascheweg 25",
      "adresse": "Ascheweg 25",
      "stadt": "Wuppertal",
      "postleitzahl": "42369",
      "anzahl_stecker": 2,
      "steckertypen": ["Typ2"],
      "betreiber": "WSW",
      "ladepunkte": 2,
      "koordinaten": {
        "latitude": 51.225697483854816,
        "longitude": 7.200339440083115
      }
    },
    {
      "id": 40,
      "name": "Kocherstraße 16",
      "adresse": "Kocherstraße 16",
      "stadt": "Wuppertal",
      "postleitzahl": "42369",
      "anzahl_stecker": 2,
      "steckertypen": ["Typ2"],
      "betreiber": "WSW",
      "ladepunkte": 2,
      "koordinaten": {
        "latitude": 51.22568404589558,
        "longitude": 7.200382355428197
      }
    },
    {
      "id": 41,
      "name": "Marktstr. 32",
      "adresse": "Marktstr. 32",
      "stadt": "Wuppertal",
      "postleitzahl": "42369",
      "anzahl_stecker": 2,
      "steckertypen": ["Typ2"],
      "betreiber": "WSW",
      "ladepunkte": 2,
      "koordinaten": {
        "latitude": 51.226856666964615,
        "longitude": 7.198061968919482
      }
    },
    {
      "id": 42,
      "name": "Pommernstr. 4",
      "adresse": "Pommernstr. 4",
      "stadt": "Wuppertal",
      "postleitzahl": "42389",
      "anzahl_stecker": 2,
      "steckertypen": ["Typ2"],
      "betreiber": "WSW",
      "ladepunkte": 2,
      "koordinaten": {
        "latitude": 51.27593140835756,
        "longitude": 7.247119655430714
      }
    },
    {
      "id": 43,
      "name": "Am Wupperstollen 1",
      "adresse": "Am Wupperstollen 1",
      "stadt": "Wuppertal",
      "postleitzahl": "42399",
      "anzahl_stecker": 2,
      "steckertypen": ["Typ2"],
      "betreiber": "WSW",
      "ladepunkte": 2,
      "koordinaten": {
        "latitude": 51.24962662816369,
        "longitude": 7.295987755429407
      }
    },
    {
      "id": 44,
      "name": "Wuppertaler Straße 2",
      "adresse": "Wuppertaler Straße 2",
      "stadt": "Windeck",
      "postleitzahl": "51570",
      "anzahl_stecker": 2,
      "steckertypen": ["Typ2", "CCS"],
      "betreiber": "WSW",
      "ladepunkte": 2,
      "koordinaten": {
        "latitude": 50.76494890628129,
        "longitude": 7.523980268896462
      }
    },
    {
      "id": 45,
      "name": "Dasnöckel 69",
      "adresse": "Dasnöckel 69",
      "stadt": "Wuppertal",
      "postleitzahl": "42329",
      "anzahl_stecker": 2,
      "steckertypen": ["Typ2", "CCS"],
      "betreiber": "WSW",
      "ladepunkte": 2,
      "koordinaten": {
        "latitude": 51.22210724009804,
        "longitude": 7.082994268919174
      }
    },
    {
      "id": 46,
      "name": "Ehrenhainstraße 130",
      "adresse": "Ehrenhainstraße 130",
      "stadt": "Wuppertal",
      "postleitzahl": "42329",
      "anzahl_stecker": 2,
      "steckertypen": ["Typ2", "CCS"],
      "betreiber": "WSW",
      "ladepunkte": 2,
      "koordinaten": {
        "latitude": 51.22182952150464,
        "longitude": 7.078354455428021
      }
    },
    {
      "id": 47,
      "name": "Teichstraße 22",
      "adresse": "Teichstraße 22",
      "stadt": "Wuppertal",
      "postleitzahl": "42277",
      "anzahl_stecker": 2,
      "steckertypen": ["Typ2"],
      "betreiber": "WSW",
      "ladepunkte": 2,
      "koordinaten": {
        "latitude": 51.28313097491948,
        "longitude": 7.217235913103626
      }
    },
    {
      "id": 48,
      "name": "Oberbergische Straße 91",
      "adresse": "Oberbergische Straße 91",
      "stadt": "Wuppertal",
      "postleitzahl": "42285",
      "anzahl_stecker": 4,
      "steckertypen": ["Typ2"],
      "betreiber": "WSW",
      "ladepunkte": 4,
      "koordinaten": {
        "latitude": 51.25261513319766,
        "longitude": 7.178776368920725
      }
    },
    {
      "id": 49,
      "name": "Paul-Humburg-Straße 10",
      "adresse": "Paul-Humburg-Straße 10",
      "stadt": "Wuppertal",
      "postleitzahl": "42275",
      "anzahl_stecker": 4,
      "steckertypen": ["Typ2"],
      "betreiber": "WSW",
      "ladepunkte": 4,
      "koordinaten": {
        "latitude": 51.272093298343584,
        "longitude": 7.1975136042197425
      }
    },
    {
      "id": 50,
      "name": "Tescher Straße 22",
      "adresse": "Tescher Straße 22",
      "stadt": "Wuppertal",
      "postleitzahl": "42327",
      "anzahl_stecker": 2,
      "steckertypen": ["Typ2"],
      "betreiber": "WSW",
      "ladepunkte": 2,
      "koordinaten": {
        "latitude": 51.23825706026001,
        "longitude": 7.071843813491191
      }
    },
    {
      "id": 51,
      "name": "Lise-Meitner-Straße 3",
      "adresse": "Lise-Meitner-Straße 3",
      "stadt": "Wuppertal",
      "postleitzahl": "42119",
      "anzahl_stecker": 2,
      "steckertypen": ["Typ2"],
      "betreiber": "WSW",
      "ladepunkte": 2,
      "koordinaten": {
        "latitude": 51.23594610687709,
        "longitude": 7.1582224400836045
      }
    }
  ]
}
